Name,Lat,Long
Moby Dick 9150 Dixie Hwy,38.1220646,-85.8571494
Tarc Stop Dixie at Ponder,38.1154555,-85.8648313
Tarc Stop Dixie at Bethany,38.0934133,-85.875385
Gene Snyder Overpass,38.0928815,-85.8750746
Tarc Stop Dixie at Paralee,38.1329184,-85.8470852
White Castle at St Andrews Church Rd,38.1427086,-85.8397454
Tarc Stop Dixie at Lower Hunters Trace,38.1562775,-85.8351231
Tarc Stop Dixie at Heaton,38.1818697,-85.8162477